     3.04           OBSERVATION DATA    M                   RINEX VERSION / TYPE
ssrcrin-16.1.0x     IGN-RGP             20260624 000000 UTC PGM / RUN BY / DATE
(00000000002004525023110004) Septentrio proprietary         COMMENT
ABMF                                                        MARKER NAME
97103M001                                                   MARKER NUMBER
                                                            MARKER TYPE
Automatic           IGN                                     OBSERVER / AGENCY
3013312             SEPT POLARX5        5.6.0               REC # / TYPE / VERS
1441112501          TRM57971.00     NONE                    ANT # / TYPE
  2919785.7120 -5383745.0670  1774604.6920                  APPROX POSITION XYZ
        0.0000        0.0000        0.0000                  ANTENNA: DELTA H/E/N
G   18 C1C L1C D1C S1C C1W S1W C2W L2W D2W S2W C2L L2L D2L  SYS / # / OBS TYPES
       S2L C5Q L5Q D5Q S5Q                                  SYS / # / OBS TYPES
E   20 C1C L1C D1C S1C C6X L6X D6X S6X C5Q L5Q D5Q S5Q C7Q  SYS / # / OBS TYPES
       L7Q D7Q S7Q C8Q L8Q D8Q S8Q                          SYS / # / OBS TYPES
S    8 C1C L1C D1C S1C C5I L5I D5I S5I                      SYS / # / OBS TYPES
R   20 C1C L1C D1C S1C C1P L1P D1P S1P C2P L2P D2P S2P C2C  SYS / # / OBS TYPES
       L2C D2C S2C C3Q L3Q D3Q S3Q                          SYS / # / OBS TYPES
C   12 C2I L2I D2I S2I C7I L7I D7I S7I C6I L6I D6I S6I      SYS / # / OBS TYPES
J   12 C1C L1C D1C S1C C2L L2L D2L S2L C5Q L5Q D5Q S5Q      SYS / # / OBS TYPES
I    4 C5A L5A D5A S5A                                      SYS / # / OBS TYPES
SEPTENTRIO RECEIVERS OUTPUT ALIGNED CARRIER PHASES.         COMMENT
NO FURTHER PHASE SHIFT APPLIED IN THE RINEX ENCODER.        COMMENT
G L1C                                                       SYS / PHASE SHIFT
G L2W                                                       SYS / PHASE SHIFT
G L2L  0.00000                                              SYS / PHASE SHIFT
G L5Q  0.00000                                              SYS / PHASE SHIFT
E L1C  0.00000                                              SYS / PHASE SHIFT
E L6X  0.00000                                              SYS / PHASE SHIFT
E L5Q  0.00000                                              SYS / PHASE SHIFT
E L7Q  0.00000                                              SYS / PHASE SHIFT
E L8Q  0.00000                                              SYS / PHASE SHIFT
S L1C                                                       SYS / PHASE SHIFT
S L5I                                                       SYS / PHASE SHIFT
R L1C                                                       SYS / PHASE SHIFT
R L1P  0.00000                                              SYS / PHASE SHIFT
R L2P  0.00000                                              SYS / PHASE SHIFT
R L2C                                                       SYS / PHASE SHIFT
R L3Q  0.00000                                              SYS / PHASE SHIFT
C L2I                                                       SYS / PHASE SHIFT
C L7I                                                       SYS / PHASE SHIFT
C L6I                                                       SYS / PHASE SHIFT
J L1C                                                       SYS / PHASE SHIFT
J L2L  0.00000                                              SYS / PHASE SHIFT
J L5Q  0.00000                                              SYS / PHASE SHIFT
I L5A                                                       SYS / PHASE SHIFT
  2026     6    24     0     0    0.0000000     GPS         TIME OF FIRST OBS
 C1C    0.000 C1P    0.000 C2C    0.000 C2P    0.000        GLONASS COD/PHS/BIS
DBHZ                                                        SIGNAL STRENGTH UNIT
    18                                                      LEAP SECONDS
  8 R01  1 R07  5 R08  6 R09 -2 R10 -7 R11  0 R12 -1 R23  3 GLONASS SLOT / FRQ #
                                                            END OF HEADER
> 2026 06 24 15 32  0.0000000  0 53
G12  23272673.095 7 122298739.57707     -1193.316 7        43.426    23272672.680 6        39.000    23272676.331 6  95297725.07106      -929.855 6        39.000    23272676.658 6  95297735.05506      -929.771 6        39.444
E28  26388089.232 6 138670356.70006     -1671.807 6        39.835    26388095.722 7 112557087.60907     -1356.906 7        44.600    26388098.406 7 103552582.85907     -1248.448 7        42.100    26388097.343 7 106253944.49207     -1281.134 7        43.062    26388098.070 7 104903268.25007     -1264.801 7        45.597
G05  21645537.562 7 113748121.41307       296.703 7        46.685    21645537.272 7        45.937    21645538.536 7  88634936.03107       231.197 7        45.937    21645539.151 7  88634927.03807       231.189 7        43.306
G20  21400290.986 7 112459367.40807      2675.449 7        46.793    21400290.888 6        36.189    21400293.150 6  87630732.72306      2084.765 6        36.189    21400293.660 7  87630736.72107      2084.796 7        45.773    21400296.463 8  83979471.11108      1997.898 8        49.047
G09  24940132.840 5 131061276.16505     -3335.418 5        30.309    24940132.577 4        27.569    24940141.908 4 102125709.10204     -2599.027 4        27.569    24940141.276 6 102125715.10906     -2599.071 6        37.006    24940143.630 6  97870363.36806     -2490.814 6        36.817
S31  38964194.742 7 204758087.61707         0.392 7        42.633    38964207.040 7 152903685.63607         0.244 7        45.615
E11  23288383.279 6 122381237.23006       403.690 6        41.466    23288384.731 7  99335411.47807       327.686 7        45.732    23288386.149 7  91388574.69907       301.466 7        43.134    23288385.108 7  93772620.22207       309.397 7        42.935    23288385.743 7  92580598.03507       305.425 7        46.067
G07  26004022.829 6 136652068.89806       -64.880 6        40.379    26004022.449 2        15.619    26004033.586 2 106482165.13702       -50.564 2        15.619    26004028.234 3                       -50.566 3        20.524
G25  24659186.439 5 129584878.61205       -90.543 5        35.129    24659185.545 4        25.654    24659193.915 4 100975252.85604       -70.541 4        25.654    24659195.897 5 100975273.82605       -70.378 5        33.862    24659196.495 6  96767962.13406       -67.611 6        39.171
G29  25660233.077 5 134845426.41405      3568.827 5        32.599    25660233.033 3        19.284    25660240.071 3 105074393.90603      2780.913 3        19.284
S33  40177824.289 6 211135908.58906         1.828 6        39.153    40177835.774 6 157666340.38306         1.415 6        40.949
C19  22684916.056 8 118126400.47708      1454.522 8        48.981                                                                    22684917.808 8  95987411.35808      1181.919 8        51.436
R06  19601370.162 8 104596740.91508      1749.578 8        50.190    19601370.257 8 104596760.92808      1749.582 8        50.229    19601376.895 8  81353110.22608      1360.709 8        50.459    19601377.110 8  81353111.21708      1360.771 8        50.585    19601224.693 8  78591694.82308      1314.577 8        49.290
G21  21027092.894 7 110498144.89307     -1251.819 7        46.521    21027092.689 6        38.132    21027093.957 6  86102473.05806      -975.443 6        38.132    21027094.255 7  86102468.05507      -975.555 7        46.989    21027098.634 8  82514888.30808      -934.818 8        50.779
E36  26597419.607 6 139770379.03106       992.356 6        39.510    26597425.001 7 113450013.82207       805.561 7        43.530    26597428.880 7 104374020.22307       741.170 7        42.038    26597427.210 7 107096815.15407       760.373 7        42.108    26597428.218 7 105735419.26107       750.774 7        45.025
G17  24373731.323 6 128084760.45206     -3277.660 6        37.221    24373730.845 4        28.123    24373737.549 4  99806301.27704     -2554.028 4        28.123    24373737.608 6  99806304.26306     -2553.923 6        36.261
S36  40059200.313 6 210512494.11506        -3.903 6        38.592    40059182.741 6 157200887.84406        -3.168 6        38.532
G30  24216334.095 6 127257672.18906       929.162 6        37.172    24216333.465 4        29.848    24216341.592 4  99161853.00004       724.022 4        29.848    24216342.696 5  99161861.01405       723.918 5        34.552    24216344.323 7  95030048.87307       693.815 7        43.973
C20  21984360.248 8 114478373.44208     -1224.585 8        50.555                                                                    21984361.035 8  93023069.37308      -995.071 8        52.246
S35  39752137.944 6 208898725.84806         4.342 6        37.244    39752150.417 6 155995879.17306         3.358 6        40.496
E06  23881045.954 7 125495766.47907       561.533 7        45.676    23881048.567 8 101863476.08208       455.799 8        52.394    23881051.385 8  93714403.64108       419.298 8        49.602    23881050.528 8  96159125.81208       430.234 8        50.352    23881051.095 8  94936766.80008       424.780 8        52.971
G11  21652938.539 7 113786935.39707       717.507 7        47.790    21652938.387 6        37.463    21652940.492 6  88665133.30806       559.098 6        37.463    21652940.614 7  88665147.31207       559.026 7        46.072    21652945.197 8  84970772.04708       535.794 8        50.210
C27  26136961.473 6 136101897.44406     -2334.947 6        39.649                                                                    26136971.877 6 110593938.78106     -1897.521 6        40.391
E12  26652669.530 5 140060641.22005      -479.860 5        34.248    26652673.603 6 113685570.37606      -389.464 6        40.717    26652676.774 6 104590728.41406      -358.140 6        38.240    26652675.495 6 107319184.11906      -367.562 6        38.820    26652676.173 6 105954958.33906      -362.833 6        41.571
E19  27930644.926 3                     -2426.502 3        19.164                                                                    27930655.873 3                     -1817.034 3        19.940    27930652.973 3                     -1865.293 3        20.429
R19  20879083.641 7 111688972.57207      -356.942 7        47.827    20879083.685 7 111688983.58007      -356.963 7        47.273    20879090.642 7  86869203.96607      -277.767 7        46.652    20879090.321 7  86869210.96207      -277.608 7        46.624    20879121.315 7  83715272.74007      -267.607 7        45.219
E16  26277966.532 6 138091596.02706     -2353.899 6        40.610    26277970.956 7 112087301.60607     -1910.625 7        44.694    26277973.827 6 103120347.48306     -1757.674 6        41.764    26277972.769 7 105810434.56107     -1803.652 7        42.891    26277973.529 7 104465397.09307     -1780.657 7        45.345
G15  23690585.076 6 124494912.99106      3553.574 6        40.942    23690585.063 6        36.930    23690588.504 6  97009065.07406      2769.010 6        36.930    23690589.506 6  97009062.09106      2768.988 6        39.261
S21  39057364.356 6 205247206.07006        -5.854 6        40.384    39057232.597 6 153268871.48906        -4.384 6        39.601
R21  23683891.834 6 126737318.95706      3088.284 6        40.172    23683891.118 6 126737299.97706      3088.199 6        40.048    23683903.301 6  98573497.50306      2401.928 6        39.628    23683902.957 6  98573494.50106      2402.019 6        37.588    23683890.638 6  94961128.34806      2313.866 6        36.677
R09  24246798.828 4 129476506.20704     -1814.049 4        28.673    24246798.753 4 129476500.23004     -1813.461 4        27.988    24246811.560 5 100703976.33905     -1410.335 5        30.377    24246811.230 5 100703985.32505     -1410.792 5        31.774    24246800.112 4  97218062.10904     -1362.258 4        27.772
E10  25678575.516 7 134941781.23907       -77.106 7        42.650    25678581.739 7 109530660.52307       -62.492 7        47.682    25678582.644 7 100768218.72307       -57.507 7        45.935    25678581.102 7 103396948.61207       -58.944 7        45.774    25678582.102 8 102082585.23908       -58.215 8        48.820
E09  24090766.412 7 126597890.51007      1779.127 7        45.938    24090770.289 8 102758066.58108      1444.064 8        51.989    24090771.796 8  94537445.80908      1328.516 8        49.194    24090770.589 8  97003622.21408      1363.176 8        49.693    24090771.368 8  95770530.58408      1345.852 8        52.469
E02  27369143.428 5 143825826.36505       600.206 5        33.551    27369149.856 6 116741768.39306       486.977 6        37.187    27369154.067 7 107402440.26607       448.182 7        42.241    27369151.602 6 110204237.27306       459.792 6        36.423    27369153.263 7 108803339.36207       454.017 7        42.637
E05  27172591.635 6 142792969.29906      2889.981 6        36.885    27172598.012 7 115903420.02607      2345.628 7        42.417    27172602.959 6 106631171.40806      2158.137 6        39.036    27172601.045 6 109412846.38206      2214.326 6        40.110    27172602.344 7 108022016.96807      2186.233 7        42.618
R18  24185518.752 6 129103930.25706     -2294.800 6        39.634    24185519.033 6 129103935.23406     -2294.655 6        38.309    24185533.635 6 100414228.76306     -1784.830 6        39.021    24185533.770 6 100414230.77506     -1784.873 6        39.081
C30  22141490.093 8 115296541.09508      -619.916 8        49.621                                                                    22141497.123 8  93687907.48408      -503.790 8        50.641
G19  21418857.747 7 112556841.08607     -2868.451 7        46.184    21418856.406 6        36.121    21418857.919 6  87706621.63906     -2235.152 6        36.121
E04  24716152.280 7 129884267.99807      -739.162 7        44.330    24716156.300 8 105425558.30508      -600.006 8        49.591    24716157.411 7  96991527.69507      -551.969 7        46.658    24716156.042 8  99521733.35208      -566.353 8        48.002    24716157.080 8  98256630.09708      -559.162 8        50.351
R04  23437336.749 6 125505782.16606     -4176.032 6        39.465    23437335.808 6 125505799.17306     -4176.056 6        38.730    23437347.416 6  97615622.73006     -3247.968 6        37.943    23437345.981 6  97615627.72406     -3247.798 6        38.243    23437336.651 6  93972453.71306     -3126.697 6        38.886
R07  24096824.199 6 128992177.06906      4116.844 6        40.341    24096824.678 6 128992195.06506      4116.870 6        39.486    24096837.672 6 100327316.88206      3201.892 6        39.324    24096837.348 6 100327297.85706      3201.987 6        39.006
G06  22784300.818 7 119732244.76507      -542.841 7        44.020    22784300.608 7        42.758    22784306.961 7  93297857.68807      -422.993 7        42.758    22784307.356 7  93297871.68407      -422.963 7        42.555    22784308.033 7  89410450.74107      -405.386 7        46.790
C35  26612836.499 6 138580018.78306      2755.625 6        41.137                                                                    26612845.397 6 112607646.48206      2239.243 6        37.127
C29  22225693.818 8 115735053.92908      1822.004 8        49.057                                                                    22225698.398 8  94044244.36908      1480.508 8        50.237
E25  25343146.581 7 133179164.36607     -1334.344 7        42.654    25343149.997 8 108099939.85208     -1083.085 8        48.423    25343153.241 7  99452023.72407      -996.456 7        45.112    25343151.870 7 102046415.45107     -1022.407 7        45.946    25343152.867 8 100749223.15608     -1009.423 8        48.523
C11  22097993.045 8 115070046.28108       844.203 8        49.356                                                                    22097996.409 8  93503854.51508       685.966 8        51.747
C36  26160970.041 6 136226972.51006      -798.376 6        40.422                                                                    26160986.276 6 110695598.74506      -648.672 6        40.510
R05  19638137.708 8 104977141.82708     -2188.253 8        50.168    19638137.992 8 104977147.83308     -2188.248 8        49.885    19638144.729 8  81648958.54508     -1702.008 8        49.557    19638144.510 8  81648944.54208     -1701.916 8        50.042    19638131.430 8  78739618.62408     -1641.297 8        49.296
C32  25759357.185 7 134135634.22007     -3042.063 7        42.030                                                                    25759366.964 6 108996173.86806     -2471.753 6        40.887
R20  20808280.659 7 111271259.61507      2219.198 7        47.689    20808280.450 7 111271265.62007      2219.142 7        46.857    20808287.836 8  86544354.48908      1725.906 8        48.148    20808287.624 7  86544355.48807      1725.862 7        47.426    20808318.350 7  83431488.45507      1663.847 7        45.523
C12  21343790.368 8 111142778.40408       -65.160 8        49.505                                                                    21343793.317 8  90312644.43908       -52.979 8        52.650
R10  24362934.648 5 129868105.82205     -1821.951 5        34.905    24362936.209 5 129868106.83005     -1822.149 5        33.659
C22  26580591.354 5 138412114.70805      2951.354 5        33.198                                                                    26580597.060 5 112471206.27705      2398.117 5        35.929
